City_ID,City,Country,Max Temp,Current Weather,Lat,Lng,Hotel Name
1,Georgetown,MY,84.13,few clouds,5.4112,100.3354,Cititel Penang
3,Vila Velha,BR,84.15,clear sky,-20.3297,-40.2925,Quality Suites Vila Velha
4,Krasnogorsk,RU,87.8,light intensity shower rain,55.8225,37.3181,"Hotel ""Academy"""
5,Nikolskoye,RU,82.29,clear sky,59.7035,30.7861,Tourist House - Sablino
9,Vimperk,CZ,76.28,few clouds,49.0586,13.7829,Hotel Zlatá Hvězda
20,Arraial Do Cabo,BR,75.06,few clouds,-22.9661,-42.0278,Pousada Porto Praia
23,Sri Aman,MY,77.07,scattered clouds,1.2376,111.4621,Seri Simanggang Hotel
24,Kruisfontein,ZA,76.89,clear sky,-34.0033,24.7314,Oyster Bay House Rental
27,Darab,IR,77.38,overcast clouds,28.7519,54.5444,Naghshe shapoor Hotel
29,Ibadan,NG,84.97,overcast clouds,7.3878,3.8964,Majerita Hotel And Suites
34,Meulaboh,ID,78.89,clear sky,4.1363,96.1285,Kost Pria
38,Shimoda,JP,76.1,clear sky,34.6667,138.95,Shimoda Tokyu Hotel
39,Nova Vicosa,BR,79.95,clear sky,-17.8919,-39.3719,Pousada Porto do Sol
44,Torbay,CA,75.88,scattered clouds,47.6666,-52.7314,Gallows Cove
45,North Platte,US,76.37,scattered clouds,41.1239,-100.7654,"Holiday Inn Express & Suites North Platte, an IHG Hotel"
48,Bathsheba,BB,84.81,broken clouds,13.2167,-59.5167,Atlantis Hotel
49,Columbus,US,76.33,scattered clouds,39.9612,-82.9988,DoubleTree Suites by Hilton Hotel Columbus Downtown
52,Namatanai,PG,78.51,overcast clouds,-3.6667,152.4333,Seagulls Inn Namatani
54,Katsuura,JP,82.11,broken clouds,35.1333,140.3,Katsuura Hotel Mikazuki
59,Namangan,UZ,82.85,few clouds,40.9983,71.6726,Oydin Plaza
60,Faya,SA,75.72,overcast clouds,18.3851,42.4509,مقبرة ال مجمل
62,Eau Claire,US,75.45,clear sky,44.8114,-91.4985,Hampton Inn Eau Claire
63,Bethel,US,77.52,overcast clouds,41.3712,-73.414,Courtyard by Marriott Danbury
65,Coroata,BR,88.72,broken clouds,-4.13,-44.1242,Hotel Carvalho
66,Nhulunbuy,AU,75.81,clear sky,-12.2333,136.7667,East Arnhem Real Estate
67,Severodvinsk,RU,80.71,broken clouds,64.5635,39.8302,Park Hotel
70,Kapaa,US,79.12,light rain,22.0752,-159.319,Sheraton Kauai Coconut Beach Resort
72,Nishihara,JP,83.48,few clouds,26.1842,127.7558,Minshuku Agaihama
73,Ponta Do Sol,PT,84.7,clear sky,32.6667,-17.1,Hotel do Campo
75,Tual,ID,80.08,light rain,-5.6667,132.75,Grand Vilia Hotel
77,Atuona,PF,77.32,few clouds,-9.8,-139.0333,Villa Enata
82,Port-Cartier,CA,75.42,scattered clouds,50.0334,-66.8654,Le Q'Artier
83,Elizabeth City,US,85.01,scattered clouds,36.2946,-76.2511,Hampton Inn Elizabeth City
87,Victoria,HK,84.38,light rain,22.2855,114.1577,Mini Hotel Central
95,Tabou,CI,80.1,overcast clouds,4.423,-7.3528,hotêl doufoulougou
96,Luganville,VU,76.87,few clouds,-15.5333,167.1667,The Espiritu Hotel
98,Naze,JP,79.21,overcast clouds,28.3667,129.4833,奄美ポートタワーホテル
102,Labuhan,ID,78.98,clear sky,-6.8844,112.2051,PT PPI Lamongan Tambak C
103,Xinyu,CN,76.06,light rain,27.8043,114.9334,Xinyu Beihu Hotel
104,Roshchino,RU,83.44,clear sky,60.2519,29.6085,Hotel Galliard
107,Kavieng,PG,81.84,overcast clouds,-2.5744,150.7967,Nusa Island Retreat
108,Richmond,US,81.99,clear sky,37.5538,-77.4603,The Jefferson Hotel
110,Bengkulu,ID,77.81,few clouds,-3.8004,102.2655,Grage Hotel Bengkulu
111,Port Elizabeth,ZA,78.1,clear sky,-33.918,25.5701,39 On Nile Guest House
114,Bluefields,NI,84.27,broken clouds,12.0137,-83.7635,Flamingo Hotel and Casino
116,Lasa,IT,82.31,overcast clouds,46.6166,10.7002,Pension Feldgärtenhof
118,Isangel,VU,75.54,broken clouds,-19.55,169.2667,Tanna Lodge
121,Tarakan,ID,81.9,scattered clouds,3.3,117.6333,RedDoorz Syariah near Taman Berlabuh Tarakan
124,Hithadhoo,MV,82.56,scattered clouds,-0.6,73.0833,Scoop Guest House
125,Marsh Harbour,BS,82.78,few clouds,26.5412,-77.0636,Abaco Beach Resort
127,Dhidhdhoo,MV,83.1,overcast clouds,6.8833,73.1,Dhidhoo beach
131,Poplar Bluff,US,76.73,overcast clouds,36.757,-90.3929,Holiday Inn Poplar Bluff
133,Gambela,ET,80.58,light rain,8.25,34.5833,Solomon Debebe Hotel
137,Monreal,PH,82.11,overcast clouds,12.644,123.6648,3f Tourist Inn
144,Vredendal,ZA,81.39,clear sky,-31.6683,18.5012,Tharrakamma Guest House
145,Hambantota,LK,81.1,broken clouds,6.1241,81.1185,Bungalow 63
146,Alice,US,85.57,clear sky,27.7523,-98.0697,"Holiday Inn Express & Suites Alice, an IHG Hotel"
147,Saint George,US,87.35,clear sky,37.1041,-113.5841,Best Western Plus Abbey Inn
148,Pingshan,CN,79.03,overcast clouds,22.9938,114.7131,Island Skylight Resort
149,Shingu,JP,78.91,broken clouds,33.7333,135.9833,Shingu UI Hotel
155,Porto Novo,BJ,84.02,broken clouds,6.4965,2.6036,Tour Eiffel Hotel Benin
157,Mariana,BR,83.07,clear sky,-20.3778,-43.4161,MINAS POUSADA E HOTEL LTDA
162,Linhai,CN,80.08,overcast clouds,28.85,121.1167,Linhai S&N International Hotel
166,Puerto Madero,MX,80.8,clear sky,14.7208,-92.4215,Hotel La Central
167,Chesapeake,US,84.24,scattered clouds,36.819,-76.2749,Renaissance Portsmouth-Norfolk Waterfront Hotel
169,Kahului,US,76.84,clear sky,20.8947,-156.47,Maui Seaside Hotel
171,Butaritari,KI,82.54,moderate rain,3.0707,172.7902,Isles Sunset Lodge
172,Kilindoni,TZ,77.67,scattered clouds,-7.9139,39.6668,Bustani B&B
178,Anori,BR,87.53,clear sky,-3.7728,-61.6442,Novo Hotel 05 Irmaos
180,Quelimane,MZ,75.15,light rain,-17.8786,36.8883,Hotel Flamingo
182,Pampa,US,77.95,clear sky,35.5362,-100.9599,"Holiday Inn Express & Suites Pampa, an IHG Hotel"
184,Nantucket,US,78.26,overcast clouds,41.2835,-70.0995,Jared Coffin House
186,Markova,UA,85.59,scattered clouds,48.6758,24.4138,Vas.VOM
189,Barcelos,PT,75.85,clear sky,41.5388,-8.6151,Hotel Do Terço
193,Lubango,AO,75.69,clear sky,-14.9172,13.4925,Hotel Serra da Chela
194,Howard Springs,AU,75.11,broken clouds,-12.497,131.047,buffalo beach hostel
196,Ilsede,DE,82.17,few clouds,52.2667,10.2,Hotel Garni Graf Von Oberg
197,Hastings,GB,88.54,clear sky,50.8552,0.5729,Zanzibar Hotel
201,Campobasso,IT,78.82,overcast clouds,41.6333,14.5833,Le Casette al Colle
203,Ipaba,BR,78.94,clear sky,-19.4136,-42.4194,Toca Do Bicho
204,Itarema,BR,87.73,few clouds,-2.9248,-39.9167,"Sea Lounge! Bar, Club & Restaurant"
205,Pitimbu,BR,81.19,scattered clouds,-7.4706,-34.8086,Reserva do Abiaí
207,Vasudevanallur,IN,79.2,overcast clouds,9.2333,77.4167,PONISHA HARENI HOMES
208,Sao Jose Da Coroa Grande,BR,80.8,few clouds,-8.8978,-35.1478,Crôa Mares Hotel
217,Topolobampo,MX,82.11,overcast clouds,25.6,-109.05,Hotel Marina Topolobampo
220,Kourou,GF,87.85,broken clouds,5.1552,-52.6478,Lodge TAKINI4 Guesthouse KOUROU FGU
222,Komsomolskiy,UZ,83.12,overcast clouds,40.4272,71.7189,Ikathouse
224,Llanes,ES,80.28,clear sky,43.4198,-4.7549,Hotel La Paz
225,Lhokseumawe,ID,80.85,broken clouds,5.1801,97.1507,OYO 3278 Penginapan Alfajri
229,Halifax,CA,79.52,overcast clouds,44.6453,-63.5724,Hotel Halifax
233,Hami,CN,80.83,overcast clouds,42.8,93.45,Laoyutang Resort
234,Lebanon,US,78.13,overcast clouds,36.2081,-86.2911,Hampton Inn & Suites Lebanon
236,Antsohihy,MG,82.13,broken clouds,-14.8796,47.9875,Hotel de Ville
238,Sibolga,ID,76.75,scattered clouds,1.7427,98.7792,Hotel Syariah CN Darussalam
243,Kaspiysk,RU,84.24,few clouds,42.8816,47.6392,Alima Hostel
246,Hirara,JP,83.68,overcast clouds,24.8,125.2833,Hotel Atoll Emerald Miyakojima
249,Morehead,US,78.15,broken clouds,37.2711,-87.1764,CCI Express Inn
250,Alexandria,EG,83.86,clear sky,31.2156,29.9553,Royal Crown Hotel
251,Makakilo City,US,77.32,broken clouds,21.3469,-158.0858,Marriott's Ko Olina Beach Club
255,San Cristobal,VE,80.78,scattered clouds,7.7669,-72.225,Posada Villaven C.A.
256,Samarai,PG,79.43,overcast clouds,-10.6167,150.6667,Nuli Sapi
257,Saldanha,ZA,75.25,clear sky,-33.0117,17.9442,Blue Bay Lodge
261,Kingman,US,85.19,clear sky,35.1894,-114.053,Rodeway Inn Kingman Route 66
262,Ferrol,ES,86.25,few clouds,43.4832,-8.2369,Carrís Almirante
263,Pabna,BD,85.15,very heavy rain,24.0,89.25,Hotel Dream Palace International
264,Sao Joao Da Barra,BR,80.69,clear sky,-21.6403,-41.0511,Pousada Porto De Canoas
272,Tianmen,CN,78.3,moderate rain,30.6516,113.1603,Tianmen Luyu Hotel
273,Itzehoe,DE,77.4,few clouds,53.921,9.5153,Hotel Mercator Itzehoe-Klosterforst
276,Puerto Colombia,CO,84.29,overcast clouds,10.9878,-74.9547,Hotel El Emigrante
278,Palembang,ID,80.69,few clouds,-2.9167,104.7458,ASTON Palembang Hotel & Conference Center
279,Korla,CN,82.02,clear sky,41.7597,86.1469,Gulisitan Hotel
283,Salalah,OM,78.89,overcast clouds,17.0151,54.0924,HAMDAN PLAZA HOTEL SALALAH
284,Lake Station,US,76.98,scattered clouds,41.575,-87.2389,Quality Inn & Suites
285,Faanui,PF,79.18,light rain,-16.4833,-151.75,Bora-Bora Pearl Beach Resort & Spa
286,Anatoli,GR,78.55,few clouds,39.6389,20.8653,Nantin Hotel Ioannina
290,Steinbach,DE,85.33,clear sky,50.1667,8.5667,Mercure Hotel Frankfurt Eschborn Helfmann Park
292,Dingle,PH,77.77,overcast clouds,10.9995,122.6711,SEGAYA PROPERTY
297,Acapulco,MX,80.42,broken clouds,16.8634,-99.8901,HS Hotsson Smart Acapulco
298,Labrea,BR,89.76,clear sky,-7.2586,-64.7981,Hotel Novo Horizonte
304,Bonthe,SL,81.21,light rain,7.5264,-12.505,Bonthe Holiday Village
305,Touros,BR,83.3,broken clouds,-5.1989,-35.4608,INN NEW HORIZON
307,Aksu,CN,88.23,scattered clouds,41.1231,80.2644,Pudong Holiday Hotel
312,Alvaraes,BR,85.87,clear sky,-3.2208,-64.8042,Av. Castelo Branco. Ginásio Ermelino vieira.
313,Zomin,UZ,88.92,few clouds,39.9606,68.3958,Orol hotel
316,Port Said,EG,82.62,clear sky,31.2565,32.2841,Aracan Hotel
318,Laguna,US,80.24,clear sky,38.421,-121.4238,"Holiday Inn Express & Suites Elk Grove Central - Hwy 99, an IHG Hotel"
319,Kieta,PG,79.45,overcast clouds,-6.2167,155.6333,Uruna Bay Retreat
322,Oyama,JP,84.58,clear sky,36.3,139.8,Toyoko Inn Oyama-eki Higashi-guchi No.1
323,Golden,US,80.78,clear sky,39.7555,-105.2211,"The Golden Hotel, Ascend Hotel Collection"
324,Bambey,SN,88.57,broken clouds,14.6955,-16.4493,chez Laurent
326,Sola,VU,79.81,broken clouds,-13.8833,167.55,Leumerus Bungalows
327,Avarua,CK,75.25,few clouds,-21.2078,-159.775,Paradise Inn
332,Surt,LY,82.13,clear sky,31.2089,16.5887,الهادي ابوشعاله سرت
335,Amuntai,ID,77.54,overcast clouds,-2.4177,115.2494,Hotel Balqis
337,Prainha,BR,85.19,scattered clouds,-1.8,-53.48,Casa Rocha
340,Vieux Fort,LC,85.23,broken clouds,13.7167,-60.95,Cedar Palm Villa
341,Nouakchott,MR,84.13,clear sky,18.0858,-15.9785,HOTEL IMAN فندق إيمان
344,Chai Badan,TH,81.84,overcast clouds,15.2,101.1333,Narai Grand Hotel
346,Ca Mau,VN,76.3,overcast clouds,9.1769,105.15,Khách Sạn Mường Thanh Luxury Cà Mau
351,Kousseri,CM,89.56,few clouds,12.0769,15.0306,Le Pilotis
352,Garowe,SO,86.27,overcast clouds,8.4054,48.4845,Curubo Hotel
353,Sartana,UA,87.85,clear sky,47.1744,37.6927,Сартана
354,Saint-Junien,FR,83.34,clear sky,45.8833,0.9,"The Originals City, Hôtel Le Boeuf Rouge, Saint-Junien (Inter-Hotel)"
355,Lanxi,CN,77.68,overcast clouds,29.2195,119.477,Shangri-La Hotel
356,Kigoma,TZ,77.61,overcast clouds,-4.8769,29.6267,MJI Mwema Lodge
357,Caravelas,BR,81.18,clear sky,-17.7125,-39.2481,Pousada dos Navegantes
358,Hasaki,JP,77.29,few clouds,35.7333,140.8333,Hotel Sunrise Choshi
359,Grand-Lahou,CI,80.33,overcast clouds,5.1367,-5.0242,Hotel Beatitude de Grand Lahou
360,Sarti,GR,82.53,clear sky,40.1,23.9833,Vamvini Hotel
361,Huilong,CN,80.98,clear sky,31.8111,121.655,Hilton Garden Inn Qidong
368,Hobyo,SO,79.18,overcast clouds,5.3505,48.5268,Halane Hotel and Restaurent
369,Saint Marys,US,88.05,clear sky,30.7305,-81.5465,Spencer House Inn
370,Port Moresby,PG,75.9,scattered clouds,-9.4431,147.1797,Lamana Hotel (Port Moresby)
375,Beberibe,BR,87.17,few clouds,-4.1797,-38.1306,Villa Arte Pousada Morro Branco
376,Zhangye,CN,89.19,few clouds,38.9342,100.4517,Zhangye Lvzhou Holiday Inn
377,Rancho Palos Verdes,US,76.21,broken clouds,33.7445,-118.387,Terranea Resort
381,Khani,GE,81.97,few clouds,41.9563,42.9566,კურორტი ზეკარი/Resort Zekari
382,Saint Anthony,US,78.31,clear sky,45.0205,-93.218,"Holiday Inn Express Roseville-St. Paul, an IHG Hotel"
384,Dakar,SN,88.68,broken clouds,14.6937,-17.4441,Redface Studios Meublés
385,Natal,BR,84.42,broken clouds,-5.795,-35.2094,Villa Park Hotel | Natal
386,Bandarbeyla,SO,80.8,overcast clouds,9.4942,50.8122,JABIR HOTEL
387,Camacha,PT,77.76,few clouds,33.0833,-16.3333,Hotel Porto Santo & Spa
388,Ambon,ID,77.09,light rain,-3.6954,128.1814,Swiss-Belhotel Ambon
392,Pechenizhyn,UA,87.19,scattered clouds,48.5155,24.8942,МАРКО
395,Pushkino,RU,87.21,light rain,56.0172,37.8667,Mini Hotel Pushkino
396,Coahuayana,MX,81.88,overcast clouds,18.7333,-103.6833,El rranchito michuacan de ocampos
397,San Patricio,US,87.66,clear sky,28.017,-97.5169,"Motel 6 Sinton, TX"
399,Juba,SS,77.72,light rain,4.8517,31.5825,ROYAL PALACE HOTEL - JUBA
402,Pointe Michel,DM,85.14,broken clouds,15.25,-61.3833,Castle Comfort Lodge Dive Dominica
410,Lata,PT,86.49,clear sky,40.1629,-8.3327,Casa Maquia
413,Wieliczka,PL,78.69,overcast clouds,49.9874,20.0647,Hotel Górsko
415,Acarau,BR,87.53,few clouds,-2.8856,-40.12,castelo pizzaria
420,Majene,ID,78.66,scattered clouds,-3.5403,118.9707,Kost Putri RABBANI
426,Buchanan,LR,80.56,light rain,5.8808,-10.0467,Kamaneahn Hotel Inc
429,Lorengau,PG,80.42,overcast clouds,-2.0226,147.2712,Lorengau Harbourside Hotel
430,Padang,ID,80.65,scattered clouds,-0.9492,100.3543,Mercure Padang
431,Sfantu Gheorghe,RO,86.58,broken clouds,45.8667,25.7833,Hotel Park
432,Cabo San Lucas,MX,83.52,overcast clouds,22.8909,-109.9124,Hotel Tesoro Los Cabos
433,Alcantara,BR,88.0,few clouds,-2.4089,-44.4147,Pousada da Josefa
434,Eydhafushi,MV,81.81,overcast clouds,5.1033,73.0708,Soneva Fushi
436,Nata,PA,80.47,overcast clouds,8.3333,-80.5167,Cabañas Estancia Bayamon
439,Marquette,US,75.78,clear sky,46.5333,-87.6335,Al Quaal Lodge
441,Finschhafen,PG,78.26,broken clouds,-6.6024,147.8681,Cossam Guest House
442,Colares,PT,77.99,few clouds,38.7992,-9.4469,Arribas Sintra Hotel
443,Kamareddi,IN,79.48,scattered clouds,18.3167,78.35,Osman Residency
444,Rongcheng,CN,75.74,light rain,30.634,117.8517,Shell Shandong Liaocheng Development District South Huangshan Road Hotel
446,Yangjiang,CN,78.94,overcast clouds,21.85,111.9667,HUALUXE Yangjiang City Center
447,Prokhorovka,RU,89.17,scattered clouds,51.0374,36.7325,Prokhorovka Field Hotel Complex
448,Cabedelo,BR,81.27,few clouds,-6.9811,-34.8339,Hotel Pigalle
451,Cam Ranh,VN,78.76,scattered clouds,11.9214,109.1591,OYO 598 Peony Hotel
453,Pontianak,ID,80.58,few clouds,-0.0333,109.3333,Aston Pontianak Hotel & Convention Center
455,Marana,US,84.79,overcast clouds,32.4367,-111.2254,Valley of the Sun Mobile Home & RV Park
456,Mangrol,IN,83.91,overcast clouds,21.1167,70.1167,Hotel The Royal Honours
458,Kupang,ID,76.39,broken clouds,-10.1667,123.5833,Hotel On The Rock by Prasanthi
459,Solvychegodsk,RU,79.07,clear sky,61.3305,46.9156,"Vychegda, Gostinitsa"
462,Tianpeng,CN,81.07,clear sky,30.9866,103.9393,Shuangliu Love Home Business Hotel
467,Ujhani,IN,82.9,moderate rain,28.0167,79.0167,Bhagwati Palace
470,Yara,CU,82.22,overcast clouds,20.2753,-76.9533,Casa de Margarita Puebla Lorente
475,Key West,US,88.0,few clouds,24.5557,-81.7826,Fairfield Inn & Suites by Marriott Key West
477,Kushmurun,KZ,75.31,clear sky,52.4503,64.6311,Gostinitsa Pri Depo
479,Gifhorn,DE,82.35,few clouds,52.4833,10.55,Morada Hotel Gifhorn
480,Yarmouth,US,80.19,mist,41.7057,-70.2286,Blue Rock Resort
481,Holland,US,76.01,clear sky,42.7875,-86.1089,Hampton Inn Holland
482,Algiers,DZ,84.02,clear sky,36.7525,3.042,Sofitel Algiers Hamma Garden
484,Margate,GB,87.85,clear sky,51.3813,1.3862,Premier Inn Margate hotel
485,Marsa Matruh,EG,82.92,clear sky,31.3525,27.2453,Beau Site
488,Daru,PG,77.45,overcast clouds,-9.0763,143.2092,Daru Lodge
490,Kulhudhuffushi,MV,82.96,overcast clouds,6.6221,73.07,Hondaafushi Island Resort
491,Teluk Nibung,ID,79.41,few clouds,3.001,99.8164,Hotel Assyifa
498,Tamiahua,MX,79.61,scattered clouds,21.2667,-97.45,Mission Of The Sun Hotel
499,Matara,LK,79.43,few clouds,5.9485,80.5353,Amaloh Boutique Resort
502,Syedove,UA,88.0,clear sky,47.0768,38.156,Зеленый дворик - 37
504,Ankang,CN,78.4,overcast clouds,32.68,109.0172,安琪酒店
505,Horsham,GB,89.82,clear sky,51.064,-0.3272,Springfields Hotel
506,Devecser,HU,83.84,overcast clouds,47.1032,17.438,Széki tó
507,Harlingen,US,84.97,few clouds,26.1906,-97.6961,Courtyard by Marriott Harlingen
508,Leua,SK,82.49,moderate rain,48.2156,18.6071,Business Hotel ASTRUM Laus
510,Tura,IN,75.78,overcast clouds,25.5198,90.2201,Hotel RIKMAN Continental
512,Knysna,ZA,79.18,clear sky,-34.0363,23.0471,Protea Hotel by Marriott Knysna Quays
514,Monrovia,LR,80.37,moderate rain,6.3005,-10.7969,Sunset Inn
516,Igreja Nova,BR,82.29,scattered clouds,-10.1253,-36.6619,Varzea igreja nova
518,Fuyang,CN,75.96,light rain,32.9,115.8167,Fuyang Wanda Realm Hotel
519,Sioux Lookout,CA,77.38,smoke,50.1001,-91.917,Knobby's Fly-In Camps
527,Iberia,US,85.05,few clouds,29.9502,-91.7507,back to back rv park
529,Abha,SA,76.82,scattered clouds,18.2164,42.5053,Abha Hotel
530,Kudahuvadhoo,MV,83.21,scattered clouds,2.6708,72.8944,Niyama Private Islands Maldives
532,Gallup,US,75.96,clear sky,35.5281,-108.7426,El Capitan Motel
535,Pauini,BR,87.13,clear sky,-7.7136,-66.9764,Casa do Kiwliks
537,Nelidovo,RU,75.61,overcast clouds,56.2211,32.7774,"Tsentral'naya, Gostinitsa"
539,Pustoshka,RU,82.89,scattered clouds,56.3355,29.369,Yubileinaya Hotel
542,Ternate,ID,80.28,light rain,0.8,127.4,Grand Dafam Bela Ternate
543,Havelock,US,86.05,scattered clouds,34.8791,-76.9013,Sherwood Motel
546,Komsomolskoye,RU,80.71,broken clouds,55.2567,47.5461,"Gostinyy Dvor ""Oazis"""
547,Leshukonskoye,RU,78.35,scattered clouds,64.8989,45.7622,Pryalitsa Hostel
548,Amahai,ID,75.09,overcast clouds,-3.3333,128.9167,HOTEL ISABELA
551,Harper,LR,79.57,overcast clouds,4.375,-7.7169,Screensaver
552,Am Timan,TD,87.19,broken clouds,11.0297,20.2827,Palais du chef Canton Salamt
554,Pingdingshan,CN,76.51,scattered clouds,33.7385,113.3012,Chengfu Hotel
555,Bairiki,KI,82.4,broken clouds,1.3292,172.9752,Tarawa Boutique Hotel
559,Trairi,BR,87.82,overcast clouds,-3.2778,-39.2689,janelas do mar
560,Union,US,81.99,broken clouds,40.6334,-74.2663,Homewood Suites by Hilton Newark-Cranford
561,Katubao,PH,80.64,broken clouds,5.8892,124.8294,IML Ecopark
563,Macenta,GN,79.36,light rain,8.5435,-9.471,Hôtel Yansané
565,Tukrah,LY,82.29,broken clouds,32.5341,20.5791,Lokta restaurant
566,Cartagena,CO,85.62,clear sky,10.3997,-75.5144,Hotel Colombia Real - Cartagena
567,Puerto Escondido,MX,79.63,broken clouds,15.85,-97.0667,Aldea del Bazar Hotel and Spa
569,Mandalgovi,MN,77.31,overcast clouds,45.7625,106.2708,В.Ганбат
570,Shakhunya,RU,81.14,clear sky,57.6758,46.6114,Inn Imperiya
571,Diamantino,BR,82.63,clear sky,-14.4086,-56.4461,Hotel Delta
572,Wewak,PG,79.29,overcast clouds,-3.5534,143.6268,In Wewak Boutique Hotel
573,Marang,MY,85.91,overcast clouds,5.2056,103.2059,DBarakah Homestay
575,Nyimba,ZM,79.09,broken clouds,-14.5566,30.8149,Dali Dali Lodge
578,Viradouro,BR,75.29,clear sky,-20.8731,-48.2969,Motel Diamond
579,Paka,MY,80.53,overcast clouds,4.6374,103.4368,RUMBIA RESORT VILLA
583,Haradok,BY,80.71,broken clouds,55.4624,29.9816,"Gostinitsa ""Sportivnyy Gorodok"""
588,Socorro,US,80.46,broken clouds,31.6546,-106.3033,guarderia imss papalote
591,Narragansett,US,80.02,broken clouds,41.4501,-71.4495,Hampton Inn South Kingstown - Newport Area
592,Kalmunai,LK,82.49,light rain,7.4167,81.8167,VS Villa
593,Kahama,TZ,81.61,scattered clouds,-3.8333,32.6,Kahama Gold Hotel
594,Jedrzejow,PL,82.18,overcast clouds,50.6394,20.3045,Apartamenty-Jędrzejów
595,Shediac,CA,81.36,overcast clouds,46.2198,-64.5411,Auberge Gabrièle (Hôtel & Restaurant)
597,Marapanim,BR,87.75,clear sky,-0.7175,-47.6997,Ecomangue Pousada
598,Fukue,JP,79.38,overcast clouds,32.6881,128.8419,Goto Guesthouse Utojuku & SA Car Rental
599,Forio,IT,82.42,light rain,40.7342,13.8646,Hotel Terme Providence
600,Rosita,NI,78.28,overcast clouds,13.9268,-84.4032,Hospedaje Zeledón
601,Shahr-E Babak,IR,83.41,overcast clouds,30.1165,55.1186,Duna Ecolodge
602,Huangchuan,CN,76.93,light rain,32.1272,115.0394,Guangzhou International Hotel
603,Domoni,KM,76.32,broken clouds,-12.2569,44.5319,Al Djadid
606,Port Arthur,CN,77.22,clear sky,38.8,121.2667,Friendship Hotel
608,Dong Hoi,VN,83.91,overcast clouds,17.4833,106.6,Nam Long Hotel
610,Hulyaypole,UA,84.87,overcast clouds,47.6653,36.2578,Lidiya
611,Bonavista,CA,77.0,clear sky,48.6499,-53.1147,Abbott's Bed & Breakfast
615,Asau,RO,81.52,overcast clouds,46.4333,26.4,Casa Mika Ciobanus
618,Omboue,GA,78.39,clear sky,-1.5746,9.2618,Hotel Olako
626,Piuma,BR,79.0,clear sky,-20.8378,-40.7219,Piúma Praia Hotel
627,Bambanglipuro,ID,76.1,few clouds,-7.95,110.2833,Puri Brata
628,Kavaratti,IN,82.29,overcast clouds,10.5669,72.642,Hotels in Lakshadweep Islands
629,Etchojoa,MX,81.09,overcast clouds,26.9167,-109.6333,Cuadra RT
632,Vawkavysk,BY,80.29,scattered clouds,53.1561,24.4513,Krasnosiel'skii
635,Whitley Bay,GB,76.01,few clouds,55.0397,-1.4471,Cara Guesthouse
636,Marigot,MF,86.09,broken clouds,18.0667,-63.0833,"Sonesta Maho Beach Resort, Casino & Spa"
637,Karachi,PK,85.82,broken clouds,24.9056,67.0822,Sadaat
645,Banes,CU,84.81,overcast clouds,20.9625,-75.7186,Hostal Iván y yailet
649,Morant Bay,JM,87.42,overcast clouds,17.8815,-76.4093,Whispering Bamboo Cove Resort
650,Salinopolis,BR,84.78,clear sky,-0.6136,-47.3561,Salinas Park Resort Maçarico AP101
651,Ondjiva,AO,81.88,clear sky,-17.0667,15.7333,SOS Motel
653,Houston,US,87.94,clear sky,29.7633,-95.3633,"Hotel ICON, Autograph Collection"
659,Sinnamary,GF,83.71,broken clouds,5.3833,-52.95,ALETHEIA Appartement Sinnamary
662,Saint-Francois,FR,83.68,clear sky,46.4154,3.9054,Manoir Du Bonheur
664,Bhatkal,IN,76.21,light rain,13.9667,74.5667,Nilawar Palace
665,Ixtapa,MX,79.23,overcast clouds,20.7,-105.2,Hotel Plaza Providencia
666,Sherman,US,82.22,broken clouds,33.6357,-96.6089,La Quinta Inn & Suites by Wyndham Sherman
670,Goderich,CA,75.04,scattered clouds,43.7501,-81.7165,Harmony Inn
671,Southbridge,US,75.6,overcast clouds,42.0751,-72.0334,Southbridge Hotel & Conference Center
677,Glowno,PL,83.91,overcast clouds,51.9646,19.7157,Kwatery Pracownicze
678,Bukoba,TZ,75.04,overcast clouds,-1.3317,31.8122,Elct Bukoba Hotel and Tours
679,Chagoda,RU,84.81,few clouds,59.164,35.3285,Rodnik
680,Gigmoto,PH,82.42,overcast clouds,13.7796,124.39,Cj's Travellers Inn
681,Menongue,AO,79.95,clear sky,-14.6585,17.691,Ritz Lauca
683,Newport,GB,87.17,broken clouds,51.5877,-2.9984,ibis budget Newport
688,Auki,SB,77.49,overcast clouds,-8.7676,160.7034,Auki Motel
692,Port Hawkesbury,CA,79.9,clear sky,45.6169,-61.3485,MacKenzie House Tourist Home B&B
695,Baringo,KE,78.19,light rain,0.4667,35.9667,Country Legend Resort
696,Beterou,BJ,86.79,overcast clouds,9.1992,2.2586,Monastère de Kokoubou
699,Shenjiamen,CN,77.81,overcast clouds,29.9576,122.298,Jinjiang Inn Zhoushan Putuo Shenjiamen
701,Russell,US,78.8,light intensity drizzle,32.3502,-85.1999,Macs
706,Ondarroa,ES,84.15,clear sky,43.3167,-2.4167,Hotel Arbe
707,Horki,BY,83.1,scattered clouds,54.2861,30.9842,Sauna V Gorkakh. Zhil'ye.
708,El Vigia,VE,84.13,scattered clouds,8.6219,-71.6506,Liceo Bolivariano 19 De Abril
712,Anda,CN,78.22,clear sky,46.4,125.3167,Shuntong Hotel
713,Sidi Ali,DZ,80.1,clear sky,36.0998,0.4206,الغابة الترفيهية بورحمة
714,Lubao,PH,79.14,moderate rain,14.9167,120.55,Hacienda Gracia
719,Rawa Mazowiecka,PL,82.29,overcast clouds,51.7644,20.2549,Obiekt Tatar - Usługi hotelarskie
723,Atasu,KZ,79.39,overcast clouds,48.6814,71.6433,Dostyk
724,Can Tho,VN,76.98,scattered clouds,10.0333,105.7833,Kim Lan Hotel Can Tho
726,Inyonga,TZ,81.66,scattered clouds,-6.7167,32.0667,Eden Rock Lodge
731,La Rioja,ES,82.49,clear sky,42.25,-2.5,Casa Concejos
733,Ewa Beach,US,78.75,broken clouds,21.3156,-158.0072,Uncle Junior Robert
734,Eganville,CA,76.35,scattered clouds,45.5334,-77.0994,Egan Inn
735,Cherepovets,RU,82.22,clear sky,59.1333,37.9,"Hotel ""Visit"""
736,Maraba,BR,89.78,scattered clouds,-5.3686,-49.1178,Hotel Del Principe
737,Kalianget,ID,80.91,few clouds,-7.05,113.9333,Pesanggrahan Garam
738,Gunzenhausen,DE,79.9,clear sky,49.1,10.75,Parkhotel Altmühltal
